[
   {
    title: "Anarkali Spice Hub", lat: 31.5700, lng: 74.3100,
    url: "#",
    banner: "https://i.postimg.cc/v8h717y3/image.png",
    time: "12PM–12AM", food: "Biryani",
    desc: "Aromatic rice with tender chicken",
    persons: 2, originalCost: 1400, offerCost: 1050
},
{
    title: "MM Alam Grill", lat: 31.52020, lng: 74.34650,
    url: "#",
    banner: "https://i.postimg.cc/v8h717y3/image.png",
    time: "2PM–2AM", food: "Seekh Kebab",
    desc: "Smoky minced meat skewers",
    persons: 2, originalCost: 1800, offerCost: 1350
},
{
    title: "Johar Town Delights", lat: 31.46850, lng: 74.27280,
    url: "#",
    banner: "https://i.postimg.cc/v8h717y3/image.png",
    time: "11AM–11PM", food: "Karahi",
    desc: "Traditional spicy chicken karahi",
    persons: 3, originalCost: 2200, offerCost: 1700
},
{
    title: "Fort Road Foodies", lat: 31.58890, lng: 74.31080,
    url: "#",
    banner: "https://i.postimg.cc/v8h717y3/image.png",
    time: "5PM–2AM", food: "Paye",
    desc: "Rich and flavorful trotters curry",
    persons: 2, originalCost: 1300, offerCost: 950
},
{
    title: "Gulberg Burgers", lat: 31.51490, lng: 74.34410,
    url: "#",
    banner: "https://i.postimg.cc/v8h717y3/image.png",
    time: "1PM–1AM", food: "Zinger Burger",
    desc: "Crispy chicken burger with mayo",
    persons: 1, originalCost: 900, offerCost: 650
},
{
    title: "Canal View BBQ", lat: 31.54020, lng: 74.37560,
    url: "#",
    banner: "https://i.postimg.cc/v8h717y3/image.png",
    time: "6PM–3AM", food: "BBQ Platter",
    desc: "Mixed grilled meats with naan",
    persons: 4, originalCost: 3000, offerCost: 2400
},
{
    title: "Ichra Street Eats", lat: 31.52900, lng: 74.31050,
    url: "#",
    banner: "https://i.postimg.cc/v8h717y3/image.png",
    time: "10AM–10PM", food: "Chaat",
    desc: "Tangy and spicy street snacks",
    persons: 2, originalCost: 700, offerCost: 500
}
]
