[
  {
    "title": "Burns Road Food Street",
    "lat": 24.8607,
    "lng": 67.0011,
    "url": "https://wa.me/923004622840",
    "banner": "https://wallpapers.com/images/hd/720p-food-background-zk7b2cc6etnqud54.jpg",
    "time": "4PM–3AM",
    "food": "Nihari",
    "desc": "Classic Karachi street-style slow-cooked beef nihari",
    "persons": 4,
    "originalCost": 3000,
    "offerCost": 2200
  },
  {
    "title": "Gawalmandi Food Street",
    "lat": 31.5622,
    "lng": 74.3095,
    "url": "https://wa.me/923004622840",
    "banner": "https://wallpapers.com/images/hd/720p-food-background-zk7b2cc6etnqud54.jpg",
    "time": "5PM–1AM",
    "food": "Chargha",
    "desc": "Famous Lahori whole fried spicy chicken chargha",
    "persons": 3,
    "originalCost": 2800,
    "offerCost": 2000
  },
  {
    "title": "Melody Food Park Islamabad",
    "lat": 33.7076,
    "lng": 73.0513,
    "url": "https://wa.me/923004622840",
    "banner": "https://wallpapers.com/images/hd/720p-food-background-zk7b2cc6etnqud54.jpg",
    "time": "3PM–12AM",
    "food": "Chicken Tikka",
    "desc": "Smoky grilled tikka with naan and chutney",
    "persons": 2,
    "originalCost": 2000,
    "offerCost": 1500
  },
  {
    "title": "Anarkali Food Street Lahore",
    "lat": 31.5651,
    "lng": 74.3142,
    "url": "https://wa.me/923004622840",
    "banner": "https://wallpapers.com/images/hd/720p-food-background-zk7b2cc6etnqud54.jpg",
    "time": "6PM–2AM",
    "food": "Gol Gappay",
    "desc": "Tangy and spicy street-style pani puri experience",
    "persons": 2,
    "originalCost": 800,
    "offerCost": 500
  },
  {
    "title": "Port Grand Karachi",
    "lat": 24.8499,
    "lng": 67.0014,
    "url": "https://wa.me/923004622840",
    "banner": "https://wallpapers.com/images/hd/720p-food-background-zk7b2cc6etnqud54.jpg",
    "time": "4PM–11PM",
    "food": "BBQ Platter",
    "desc": "Mixed grilled BBQ platter with rice and naan",
    "persons": 4,
    "originalCost": 4500,
    "offerCost": 3200
  },
  {
    "title": "Hussain Agahi Food Street Multan",
    "lat": 30.1978,
    "lng": 71.4707,
    "url": "https://wa.me/923004622840",
    "banner": "https://wallpapers.com/images/hd/720p-food-background-zk7b2cc6etnqud54.jpg",
    "time": "5PM–12AM",
    "food": "Sohan Halwa",
    "desc": "Traditional Multani sweet dessert specialty",
    "persons": 3,
    "originalCost": 1200,
    "offerCost": 900
  },
  {
    "title": "Peshawar Namak Mandi",
    "lat": 34.0080,
    "lng": 71.5785,
    "url": "https://wa.me/923004622840",
    "banner": "https://wallpapers.com/images/hd/720p-food-background-zk7b2cc6etnqud54.jpg",
    "time": "4PM–2AM",
    "food": "Mutton Karahi",
    "desc": "Authentic Peshawari style spicy mutton karahi",
    "persons": 4,
    "originalCost": 5000,
    "offerCost": 3800
  },
  {
    "title": "Bahadurabad Food Street Karachi",
    "lat": 24.8720,
    "lng": 67.0730,
    "url": "https://wa.me/923004622840",
    "banner": "https://wallpapers.com/images/hd/720p-food-background-zk7b2cc6etnqud54.jpg",
    "time": "5PM–1AM",
    "food": "Bun Kebab",
    "desc": "Spicy street bun kebab with chutney and egg",
    "persons": 2,
    "originalCost": 600,
    "offerCost": 400
  },
  {
    "title": "Fort Road Food Street Lahore",
    "lat": 31.5880,
    "lng": 74.3090,
    "url": "https://wa.me/923004622840",
    "banner": "https://wallpapers.com/images/hd/720p-food-background-zk7b2cc6etnqud54.jpg",
    "time": "6PM–1AM",
    "food": "Lahori Karahi",
    "desc": "Rich butter-based Lahori chicken karahi with naan",
    "persons": 3,
    "originalCost": 3500,
    "offerCost": 2500
  },
  {
    "title": "Hyderabad Food Street Sindh",
    "lat": 25.3960,
    "lng": 68.3578,
    "url": "https://wa.me/923004622840",
    "banner": "https://wallpapers.com/images/hd/720p-food-background-zk7b2cc6etnqud54.jpg",
    "time": "5PM–12AM",
    "food": "Dahi Bhallay",
    "desc": "Sweet and tangy yogurt-based street snack",
    "persons": 2,
    "originalCost": 700,
    "offerCost": 500
  },
  {
    "title": "Saddar Food Street Rawalpindi",
    "lat": 33.7215,
    "lng": 73.0433,
    "url": "https://wa.me/923004622840",
    "banner": "https://wallpapers.com/images/hd/720p-food-background-zk7b2cc6etnqud54.jpg",
    "time": "4PM–2AM",
    "food": "Haleem",
    "desc": "Slow-cooked hearty wheat and meat haleem",
    "persons": 3,
    "originalCost": 1800,
    "offerCost": 1300
  },
  {
    "title": "Quetta Serena Food Court",
    "lat": 30.1841,
    "lng": 66.9750,
    "url": "https://wa.me/923004622840",
    "banner": "https://wallpapers.com/images/hd/720p-food-background-zk7b2cc6etnqud54.jpg",
    "time": "3PM–11PM",
    "food": "Sajji",
    "desc": "Whole lamb roasted in traditional Balochi style",
    "persons": 5,
    "originalCost": 6500,
    "offerCost": 4800
  },
  {
    "title": "Faisalabad Clock Tower Food Street",
    "lat": 31.4187,
    "lng": 73.0778,
    "url": "https://wa.me/923004622840",
    "banner": "https://wallpapers.com/images/hd/720p-food-background-zk7b2cc6etnqud54.jpg",
    "time": "5PM–1AM",
    "food": "Seekh Kebab",
    "desc": "Juicy minced meat seekh kebabs with spices",
    "persons": 3,
    "originalCost": 2200,
    "offerCost": 1600
  },
  {
    "title": "Gulshan-e-Iqbal Food Street Karachi",
    "lat": 24.9277,
    "lng": 67.0920,
    "url": "https://wa.me/923004622840",
    "banner": "https://wallpapers.com/images/hd/720p-food-background-zk7b2cc6etnqud54.jpg",
    "time": "6PM–3AM",
    "food": "Beef Biryani",
    "desc": "Aromatic Karachi-style beef biryani with raita",
    "persons": 4,
    "originalCost": 3200,
    "offerCost": 2400
  },
  {
    "title": "Wagah Border Food Park",
    "lat": 31.6054,
    "lng": 74.5730,
    "url": "https://wa.me/923004622840",
    "banner": "https://wallpapers.com/images/hd/720p-food-background-zk7b2cc6etnqud54.jpg",
    "time": "4PM–12AM",
    "food": "Amritsari Fish",
    "desc": "Crispy fried spiced fish with lemon and chutney",
    "persons": 3,
    "originalCost": 2500,
    "offerCost": 1800
  },
  {
    "title": "Blue Area Food Street Islamabad",
    "lat": 33.7182,
    "lng": 73.0714,
    "url": "https://wa.me/923004622840",
    "banner": "https://wallpapers.com/images/hd/720p-food-background-zk7b2cc6etnqud54.jpg",
    "time": "12PM–1AM",
    "food": "Chicken Shawarma",
    "desc": "Wrapped shawarma with garlic sauce and fries",
    "persons": 2,
    "originalCost": 900,
    "offerCost": 650
  },
  {
    "title": "Lahore Fort Food Street",
    "lat": 31.5904,
    "lng": 74.3097,
    "url": "https://wa.me/923004622840",
    "banner": "https://wallpapers.com/images/hd/720p-food-background-zk7b2cc6etnqud54.jpg",
    "time": "5PM–2AM",
    "food": "Paye",
    "desc": "Slow-cooked trotters in rich spicy gravy",
    "persons": 4,
    "originalCost": 2800,
    "offerCost": 2100
  },
  {
    "title": "Clifton Block 2 Food Street Karachi",
    "lat": 24.8130,
    "lng": 67.0270,
    "url": "https://wa.me/923004622840",
    "banner": "https://wallpapers.com/images/hd/720p-food-background-zk7b2cc6etnqud54.jpg",
    "time": "4PM–12AM",
    "food": "Prawn Karahi",
    "desc": "Fresh prawns cooked in spicy tomato gravy",
    "persons": 3,
    "originalCost": 3800,
    "offerCost": 2900
  },
  {
    "title": "Multan Cantt Food Park",
    "lat": 30.1800,
    "lng": 71.4500,
    "url": "https://wa.me/923004622840",
    "banner": "https://wallpapers.com/images/hd/720p-food-background-zk7b2cc6etnqud54.jpg",
    "time": "6PM–1AM",
    "food": "Mango Lassi",
    "desc": "Thick refreshing Multani mango lassi with cream",
    "persons": 2,
    "originalCost": 600,
    "offerCost": 400
  },
  {
    "title": "Khyber Pass Food Street Peshawar",
    "lat": 34.0151,
    "lng": 71.5249,
    "url": "https://wa.me/923004622840",
    "banner": "https://wallpapers.com/images/hd/720p-food-background-zk7b2cc6etnqud54.jpg",
    "time": "3PM–2AM",
    "food": "Chapli Kebab",
    "desc": "Flat Peshawari minced meat kebab with spices",
    "persons": 3,
    "originalCost": 2100,
    "offerCost": 1500
  },
  {
    "title": "DHA Phase 6 Food Street Lahore",
    "lat": 31.4800,
    "lng": 74.4100,
    "url": "https://wa.me/923004622840",
    "banner": "https://wallpapers.com/images/hd/720p-food-background-zk7b2cc6etnqud54.jpg",
    "time": "5PM–1AM",
    "food": "Butter Chicken",
    "desc": "Creamy tomato-based butter chicken with naan",
    "persons": 4,
    "originalCost": 3400,
    "offerCost": 2600
  },
  {
    "title": "Hyderi Market Food Street Karachi",
    "lat": 24.9200,
    "lng": 67.0600,
    "url": "https://wa.me/923004622840",
    "banner": "https://wallpapers.com/images/hd/720p-food-background-zk7b2cc6etnqud54.jpg",
    "time": "4PM–12AM",
    "food": "Chicken Biryani",
    "desc": "Sindhi-style fragrant chicken biryani",
    "persons": 4,
    "originalCost": 2800,
    "offerCost": 2000
  },
  {
    "title": "Jinnah Park Food Court Islamabad",
    "lat": 33.6938,
    "lng": 73.0652,
    "url": "https://wa.me/923004622840",
    "banner": "https://wallpapers.com/images/hd/720p-food-background-zk7b2cc6etnqud54.jpg",
    "time": "2PM–11PM",
    "food": "Daal Chawal",
    "desc": "Comforting lentils with rice and tarka",
    "persons": 2,
    "originalCost": 1200,
    "offerCost": 850
  },
  {
    "title": "Sukkur Food Street",
    "lat": 27.7050,
    "lng": 68.8570,
    "url": "https://wa.me/923004622840",
    "banner": "https://wallpapers.com/images/hd/720p-food-background-zk7b2cc6etnqud54.jpg",
    "time": "5PM–1AM",
    "food": "Fried Fish",
    "desc": "Crispy Sindhi-style river fish with spices",
    "persons": 3,
    "originalCost": 2600,
    "offerCost": 1900
  },
  {
    "title": "Abbottabad Food Street",
    "lat": 34.1970,
    "lng": 73.2460,
    "url": "https://wa.me/923004622840",
    "banner": "https://wallpapers.com/images/hd/720p-food-background-zk7b2cc6etnqud54.jpg",
    "time": "4PM–12AM",
    "food": "Mutton Karahi",
    "desc": "Hill-style spicy mutton karahi with fresh herbs",
    "persons": 4,
    "originalCost": 4200,
    "offerCost": 3100
  },
  {
    "title": "Gujranwala Food Park",
    "lat": 32.1877,
    "lng": 74.1945,
    "url": "https://wa.me/923004622840",
    "banner": "https://wallpapers.com/images/hd/720p-food-background-zk7b2cc6etnqud54.jpg",
    "time": "6PM–2AM",
    "food": "Gujranwala Sweets",
    "desc": "Freshly made gulab jamun and barfi assortment",
    "persons": 3,
    "originalCost": 1500,
    "offerCost": 1100
  },
  {
    "title": "Bahria Town Food Street Lahore",
    "lat": 31.3700,
    "lng": 74.1800,
    "url": "https://wa.me/923004622840",
    "banner": "https://wallpapers.com/images/hd/720p-food-background-zk7b2cc6etnqud54.jpg",
    "time": "12PM–1AM",
    "food": "Zarda",
    "desc": "Sweet saffron rice dessert with nuts",
    "persons": 4,
    "originalCost": 1400,
    "offerCost": 1000
  },
  {
    "title": "Nazimabad Food Street Karachi",
    "lat": 24.9300,
    "lng": 67.0400,
    "url": "https://wa.me/923004622840",
    "banner": "https://wallpapers.com/images/hd/720p-food-background-zk7b2cc6etnqud54.jpg",
    "time": "5PM–3AM",
    "food": "Haleem",
    "desc": "Signature Karachi beef haleem with lemon",
    "persons": 3,
    "originalCost": 2200,
    "offerCost": 1600
  },
  {
    "title": "Sargodha Food Street",
    "lat": 32.0736,
    "lng": 72.6711,
    "url": "https://wa.me/923004622840",
    "banner": "https://wallpapers.com/images/hd/720p-food-background-zk7b2cc6etnqud54.jpg",
    "time": "4PM–11PM",
    "food": "Kinnow Juice",
    "desc": "Fresh Sargodha kinnow juice with ice",
    "persons": 2,
    "originalCost": 500,
    "offerCost": 350
  },
  {
    "title": "Murree Mall Road Food Street",
    "lat": 33.9078,
    "lng": 73.3915,
    "url": "https://wa.me/923004622840",
    "banner": "https://wallpapers.com/images/hd/720p-food-background-zk7b2cc6etnqud54.jpg",
    "time": "11AM–11PM",
    "food": "Mutton BBQ",
    "desc": "Grilled mutton ribs with mountain spices",
    "persons": 4,
    "originalCost": 4500,
    "offerCost": 3400
  },
  {
    "title": "Rahim Yar Khan Food Park",
    "lat": 28.4200,
    "lng": 70.3000,
    "url": "https://wa.me/923004622840",
    "banner": "https://wallpapers.com/images/hd/720p-food-background-zk7b2cc6etnqud54.jpg",
    "time": "5PM–12AM",
    "food": "Bihari Kebab",
    "desc": "Tender marinated beef strips grilled",
    "persons": 3,
    "originalCost": 2700,
    "offerCost": 2000
  },
  {
    "title": "Defence Food Street Karachi",
    "lat": 24.8300,
    "lng": 67.0700,
    "url": "https://wa.me/923004622840",
    "banner": "https://wallpapers.com/images/hd/720p-food-background-zk7b2cc6etnqud54.jpg",
    "time": "6PM–2AM",
    "food": "Seekh Paratha",
    "desc": "Minced meat stuffed paratha with yogurt",
    "persons": 2,
    "originalCost": 1100,
    "offerCost": 800
  },
  {
    "title": "Jhelum Food Street",
    "lat": 32.9340,
    "lng": 73.7270,
    "url": "https://wa.me/923004622840",
    "banner": "https://wallpapers.com/images/hd/720p-food-background-zk7b2cc6etnqud54.jpg",
    "time": "4PM–1AM",
    "food": "Lassi",
    "desc": "Thick salty or sweet traditional lassi",
    "persons": 2,
    "originalCost": 700,
    "offerCost": 500
  },
  {
    "title": "Gwadar Food Street",
    "lat": 25.1264,
    "lng": 62.3228,
    "url": "https://wa.me/923004622840",
    "banner": "https://wallpapers.com/images/hd/720p-food-background-zk7b2cc6etnqud54.jpg",
    "time": "3PM–11PM",
    "food": "Seafood Platter",
    "desc": "Fresh grilled prawns, fish and crab",
    "persons": 4,
    "originalCost": 5200,
    "offerCost": 3900
  },
  {
    "title": "Okara Food Park",
    "lat": 30.8100,
    "lng": 73.4500,
    "url": "https://wa.me/923004622840",
    "banner": "https://wallpapers.com/images/hd/720p-food-background-zk7b2cc6etnqud54.jpg",
    "time": "5PM–12AM",
    "food": "Makki di Roti & Sarson da Saag",
    "desc": "Traditional corn flatbread with mustard greens",
    "persons": 3,
    "originalCost": 1600,
    "offerCost": 1200
  },
  {
    "title": "Bhera Motorway Food Court",
    "lat": 32.4800,
    "lng": 72.9100,
    "url": "https://wa.me/923004622840",
    "banner": "https://wallpapers.com/images/hd/720p-food-background-zk7b2cc6etnqud54.jpg",
    "time": "24 Hours",
    "food": "Highway Nihari",
    "desc": "Hot beef nihari served with fresh naan",
    "persons": 4,
    "originalCost": 2600,
    "offerCost": 1900
  },
  {
    "title": "Chaman Border Food Street",
    "lat": 30.9200,
    "lng": 66.4500,
    "url": "https://wa.me/923004622840",
    "banner": "https://wallpapers.com/images/hd/720p-food-background-zk7b2cc6etnqud54.jpg",
    "time": "6PM–1AM",
    "food": "Afghani Kabab",
    "desc": "Spiced Afghan-style grilled kebabs",
    "persons": 3,
    "originalCost": 2300,
    "offerCost": 1700
  },
  {
    "title": "Model Town Food Street Lahore",
    "lat": 31.4800,
    "lng": 74.3300,
    "url": "https://wa.me/923004622840",
    "banner": "https://wallpapers.com/images/hd/720p-food-background-zk7b2cc6etnqud54.jpg",
    "time": "5PM–2AM",
    "food": "Falooda",
    "desc": "Rich rose milk dessert with vermicelli",
    "persons": 2,
    "originalCost": 900,
    "offerCost": 650
  },
  {
    "title": "Sialkot Food Street",
    "lat": 32.4925,
    "lng": 74.5310,
    "url": "https://wa.me/923004622840",
    "banner": "https://wallpapers.com/images/hd/720p-food-background-zk7b2cc6etnqud54.jpg",
    "time": "4PM–12AM",
    "food": "Chicken Tikka",
    "desc": "Sialkoti spiced grilled chicken pieces",
    "persons": 3,
    "originalCost": 2400,
    "offerCost": 1750
  },
  {
    "title": "Mirpur AJK Food Park",
    "lat": 33.1500,
    "lng": 73.7500,
    "url": "https://wa.me/923004622840",
    "banner": "https://wallpapers.com/images/hd/720p-food-background-zk7b2cc6etnqud54.jpg",
    "time": "3PM–11PM",
    "food": "Kashmiri Tea",
    "desc": "Pink salty Kashmiri noon chai with bread",
    "persons": 2,
    "originalCost": 800,
    "offerCost": 550
  },
  {
    "title": "Dera Ghazi Khan Food Street",
    "lat": 29.9600,
    "lng": 70.6300,
    "url": "https://wa.me/923004622840",
    "banner": "https://wallpapers.com/images/hd/720p-food-background-zk7b2cc6etnqud54.jpg",
    "time": "5PM–1AM",
    "food": "Sajji",
    "desc": "Slow-roasted spiced lamb Sajji",
    "persons": 4,
    "originalCost": 4800,
    "offerCost": 3600
  },
  {
    "title": "Bahawalpur Food Street",
    "lat": 29.3950,
    "lng": 71.6830,
    "url": "https://wa.me/923004622840",
    "banner": "https://wallpapers.com/images/hd/720p-food-background-zk7b2cc6etnqud54.jpg",
    "time": "4PM–12AM",
    "food": "Mango Dessert",
    "desc": "Fresh Bahawalpur mango kulfi and shakes",
    "persons": 3,
    "originalCost": 1300,
    "offerCost": 950
  },
  {
    "title": "Attock Food Park",
    "lat": 33.7660,
    "lng": 72.3600,
    "url": "https://wa.me/923004622840",
    "banner": "https://wallpapers.com/images/hd/720p-food-background-zk7b2cc6etnqud54.jpg",
    "time": "6PM–1AM",
    "food": "River Fish Fry",
    "desc": "Fresh Indus river fish with spices",
    "persons": 3,
    "originalCost": 2700,
    "offerCost": 2000
  },
  {
    "title": "Jacobabad Food Street",
    "lat": 28.2800,
    "lng": 68.4500,
    "url": "https://wa.me/923004622840",
    "banner": "https://wallpapers.com/images/hd/720p-food-background-zk7b2cc6etnqud54.jpg",
    "time": "5PM–12AM",
    "food": "Spicy Biryani",
    "desc": "Jacobabad special hot and spicy beef biryani",
    "persons": 4,
    "originalCost": 2900,
    "offerCost": 2200
  },
  {
    "title": "Mardan Food Street",
    "lat": 34.1980,
    "lng": 72.0500,
    "url": "https://wa.me/923004622840",
    "banner": "https://wallpapers.com/images/hd/720p-food-background-zk7b2cc6etnqud54.jpg",
    "time": "4PM–1AM",
    "food": "Kabuli Pulao",
    "desc": "Afghan-inspired rice with raisins and carrots",
    "persons": 4,
    "originalCost": 3100,
    "offerCost": 2300
  },
  {
    "title": "Swat Valley Food Park",
    "lat": 35.2227,
    "lng": 72.4258,
    "url": "https://wa.me/923004622840",
    "banner": "https://wallpapers.com/images/hd/720p-food-background-zk7b2cc6etnqud54.jpg",
    "time": "11AM–10PM",
    "food": "Trout Fish",
    "desc": "Fresh Swat river trout grilled or fried",
    "persons": 3,
    "originalCost": 3200,
    "offerCost": 2400
  },
  {
    "title": "Gilgit Food Street",
    "lat": 35.9187,
    "lng": 74.3129,
    "url": "https://wa.me/923004622840",
    "banner": "https://wallpapers.com/images/hd/720p-food-background-zk7b2cc6etnqud54.jpg",
    "time": "12PM–11PM",
    "food": "Apricot Dessert",
    "desc": "Local Hunza apricot cake and dried fruit mix",
    "persons": 2,
    "originalCost": 1100,
    "offerCost": 800
  },
  {
    "title": "Skardu Food Court",
    "lat": 35.2971,
    "lng": 75.6333,
    "url": "https://wa.me/923004622840",
    "banner": "https://wallpapers.com/images/hd/720p-food-background-zk7b2cc6etnqud54.jpg",
    "time": "10AM–9PM",
    "food": "Yak Meat Karahi",
    "desc": "Traditional Baltistan yak meat dish",
    "persons": 4,
    "originalCost": 5500,
    "offerCost": 4100
  },
  {
    "title": "Khairpur Food Street",
    "lat": 27.5290,
    "lng": 68.7617,
    "url": "https://wa.me/923004622840",
    "banner": "https://wallpapers.com/images/hd/720p-food-background-zk7b2cc6etnqud54.jpg",
    "time": "5PM–12AM",
    "food": "Dates Dessert",
    "desc": "Fresh Khairpur dates with cream and nuts",
    "persons": 2,
    "originalCost": 900,
    "offerCost": 650
  },
  {
    "title": "Larkana Food Park",
    "lat": 27.5570,
    "lng": 68.2120,
    "url": "https://wa.me/923004622840",
    "banner": "https://wallpapers.com/images/hd/720p-food-background-zk7b2cc6etnqud54.jpg",
    "time": "4PM–1AM",
    "food": "Sindhi Biryani",
    "desc": "Classic Sindhi dum biryani with potatoes",
    "persons": 4,
    "originalCost": 2700,
    "offerCost": 1950
  },
  {
    "title": "Vehari Food Street",
    "lat": 30.0333,
    "lng": 72.3500,
    "url": "https://wa.me/923004622840",
    "banner": "https://wallpapers.com/images/hd/720p-food-background-zk7b2cc6etnqud54.jpg",
    "time": "6PM–12AM",
    "food": "Mango Ice Cream",
    "desc": "Creamy Vehari mango ice cream",
    "persons": 3,
    "originalCost": 1200,
    "offerCost": 850
  },
  {
    "title": "Sahiwal Food Park",
    "lat": 30.6667,
    "lng": 73.1000,
    "url": "https://wa.me/923004622840",
    "banner": "https://wallpapers.com/images/hd/720p-food-background-zk7b2cc6etnqud54.jpg",
    "time": "5PM–1AM",
    "food": "Desi Ghee Paratha",
    "desc": "Crispy paratha cooked in pure desi ghee",
    "persons": 2,
    "originalCost": 800,
    "offerCost": 550
  },
  {
    "title": "Chiniot Furniture Market Food Street",
    "lat": 31.7200,
    "lng": 72.9780,
    "url": "https://wa.me/923004622840",
    "banner": "https://wallpapers.com/images/hd/720p-food-background-zk7b2cc6etnqud54.jpg",
    "time": "4PM–11PM",
    "food": "Mutton Chops",
    "desc": "Grilled juicy mutton chops with spices",
    "persons": 3,
    "originalCost": 2800,
    "offerCost": 2100
  },
  {
    "title": "Kasur Food Street",
    "lat": 31.1187,
    "lng": 74.4500,
    "url": "https://wa.me/923004622840",
    "banner": "https://wallpapers.com/images/hd/720p-food-background-zk7b2cc6etnqud54.jpg",
    "time": "6PM–2AM",
    "food": "Kasuri Methi Chicken",
    "desc": "Chicken cooked with famous Kasuri fenugreek",
    "persons": 4,
    "originalCost": 3100,
    "offerCost": 2300
  },
  {
    "title": "Sheikhupura Food Park",
    "lat": 31.7131,
    "lng": 73.9783,
    "url": "https://wa.me/923004622840",
    "banner": "https://wallpapers.com/images/hd/720p-food-background-zk7b2cc6etnqud54.jpg",
    "time": "5PM–12AM",
    "food": "Qeema Naan",
    "desc": "Minced meat stuffed naan with spices",
    "persons": 3,
    "originalCost": 1400,
    "offerCost": 1000
  },
  {
    "title": "Jhang Food Street",
    "lat": 31.2698,
    "lng": 72.3167,
    "url": "https://wa.me/923004622840",
    "banner": "https://wallpapers.com/images/hd/720p-food-background-zk7b2cc6etnqud54.jpg",
    "time": "4PM–1AM",
    "food": "Siri Paye",
    "desc": "Traditional siri paye with fresh naan",
    "persons": 4,
    "originalCost": 2500,
    "offerCost": 1850
  },
  {
    "title": "Layyah Food Court",
    "lat": 30.9610,
    "lng": 70.9390,
    "url": "https://wa.me/923004622840",
    "banner": "https://wallpapers.com/images/hd/720p-food-background-zk7b2cc6etnqud54.jpg",
    "time": "5PM–12AM",
    "food": "Desi Chicken Karahi",
    "desc": "Village-style spicy chicken karahi",
    "persons": 3,
    "originalCost": 2300,
    "offerCost": 1700
  },
  {
    "title": "Bannu Food Street",
    "lat": 32.9860,
    "lng": 70.6040,
    "url": "https://wa.me/923004622840",
    "banner": "https://wallpapers.com/images/hd/720p-food-background-zk7b2cc6etnqud54.jpg",
    "time": "3PM–11PM",
    "food": "Bannu Keema",
    "desc": "Spicy minced meat specialty of Bannu",
    "persons": 3,
    "originalCost": 2000,
    "offerCost": 1450
  },
  {
    "title": "Dera Ismail Khan Food Park",
    "lat": 31.8314,
    "lng": 70.9019,
    "url": "https://wa.me/923004622840",
    "banner": "https://wallpapers.com/images/hd/720p-food-background-zk7b2cc6etnqud54.jpg",
    "time": "4PM–12AM",
    "food": "Sohan Halwa DI Khan",
    "desc": "Famous Dera Ismail Khan sohan halwa",
    "persons": 3,
    "originalCost": 1400,
    "offerCost": 1050
  },
  {
    "title": "Kohat Food Street",
    "lat": 33.5820,
    "lng": 71.4420,
    "url": "https://wa.me/923004622840",
    "banner": "https://wallpapers.com/images/hd/720p-food-background-zk7b2cc6etnqud54.jpg",
    "time": "5PM–1AM",
    "food": "Pathan Kebab",
    "desc": "Juicy Pathan-style grilled kebabs",
    "persons": 3,
    "originalCost": 2100,
    "offerCost": 1550
  },
  {
    "title": "Nowshera Food Park",
    "lat": 34.0158,
    "lng": 71.9812,
    "url": "https://wa.me/923004622840",
    "banner": "https://wallpapers.com/images/hd/720p-food-background-zk7b2cc6etnqud54.jpg",
    "time": "4PM–12AM",
    "food": "Chapli Kebab Platter",
    "desc": "Large platter of Peshawari chapli kebabs",
    "persons": 4,
    "originalCost": 3200,
    "offerCost": 2400
  },
  {
    "title": "Mandi Bahauddin Food Street",
    "lat": 32.2667,
    "lng": 73.5000,
    "url": "https://wa.me/923004622840",
    "banner": "https://wallpapers.com/images/hd/720p-food-background-zk7b2cc6etnqud54.jpg",
    "time": "6PM–1AM",
    "food": "Lobia Chawal",
    "desc": "Black-eyed beans with rice and pickle",
    "persons": 2,
    "originalCost": 1100,
    "offerCost": 800
  },
  {
    "title": "Hafizabad Food Park",
    "lat": 32.0708,
    "lng": 73.6880,
    "url": "https://wa.me/923004622840",
    "banner": "https://wallpapers.com/images/hd/720p-food-background-zk7b2cc6etnqud54.jpg",
    "time": "5PM–12AM",
    "food": "Gurh Walay Chawal",
    "desc": "Sweet jaggery rice dessert",
    "persons": 3,
    "originalCost": 1000,
    "offerCost": 700
  },
  {
    "title": "Ghotki Food Street",
    "lat": 27.9990,
    "lng": 69.3150,
    "url": "https://wa.me/923004622840",
    "banner": "https://wallpapers.com/images/hd/720p-food-background-zk7b2cc6etnqud54.jpg",
    "time": "4PM–11PM",
    "food": "Sindhi Curry",
    "desc": "Spicy Sindhi kadhi with pakoras",
    "persons": 3,
    "originalCost": 1500,
    "offerCost": 1100
  },
  {
    "title": "Nawabshah Food Park",
    "lat": 26.2394,
    "lng": 68.4037,
    "url": "https://wa.me/923004622840",
    "banner": "https://wallpapers.com/images/hd/720p-food-background-zk7b2cc6etnqud54.jpg",
    "time": "5PM–12AM",
    "food": "Onion Bhaji",
    "desc": "Crispy onion fritters with chutney",
    "persons": 2,
    "originalCost": 700,
    "offerCost": 500
  }
]
