[
  {
    "title": "Burns Road Food Street",
    "lat": 24.8607,
    "lng": 67.0011,
    "url": "https://wa.me/923004622840",
    "banner": "https://wallpapers.com/images/hd/720p-food-background-zk7b2cc6etnqud54.jpg",
    "time": "4PM–3AM",
    "food": "Nihari",
    "desc": "Classic Karachi street-style slow-cooked beef nihari",
    "persons": 4,
    "originalCost": 3000,
    "offerCost": 2200
  },
  {
    "title": "Gawalmandi Food Street",
    "lat": 31.5622,
    "lng": 74.3095,
    "url": "https://wa.me/923004622840",
    "banner": "https://wallpapers.com/images/hd/720p-food-background-zk7b2cc6etnqud54.jpg",
    "time": "5PM–1AM",
    "food": "Chargha",
    "desc": "Famous Lahori whole fried spicy chicken chargha",
    "persons": 3,
    "originalCost": 2800,
    "offerCost": 2000
  },
  {
    "title": "Melody Food Park Islamabad",
    "lat": 33.7076,
    "lng": 73.0513,
    "url": "https://wa.me/923004622840",
    "banner": "https://wallpapers.com/images/hd/720p-food-background-zk7b2cc6etnqud54.jpg",
    "time": "3PM–12AM",
    "food": "Chicken Tikka",
    "desc": "Smoky grilled tikka with naan and chutney",
    "persons": 2,
    "originalCost": 2000,
    "offerCost": 1500
  },
  {
    "title": "Anarkali Food Street Lahore",
    "lat": 31.5651,
    "lng": 74.3142,
    "url": "https://wa.me/923004622840",
    "banner": "https://wallpapers.com/images/hd/720p-food-background-zk7b2cc6etnqud54.jpg",
    "time": "6PM–2AM",
    "food": "Gol Gappay",
    "desc": "Tangy and spicy street-style pani puri experience",
    "persons": 2,
    "originalCost": 800,
    "offerCost": 500
  },
  {
    "title": "Port Grand Karachi",
    "lat": 24.8499,
    "lng": 67.0014,
    "url": "https://wa.me/923004622840",
    "banner": "https://wallpapers.com/images/hd/720p-food-background-zk7b2cc6etnqud54.jpg",
    "time": "4PM–11PM",
    "food": "BBQ Platter",
    "desc": "Mixed grilled BBQ platter with rice and naan",
    "persons": 4,
    "originalCost": 4500,
    "offerCost": 3200
  },
  {
    "title": "Hussain Agahi Food Street Multan",
    "lat": 30.1978,
    "lng": 71.4707,
    "url": "https://wa.me/923004622840",
    "banner": "https://wallpapers.com/images/hd/720p-food-background-zk7b2cc6etnqud54.jpg",
    "time": "5PM–12AM",
    "food": "Sohan Halwa",
    "desc": "Traditional Multani sweet dessert specialty",
    "persons": 3,
    "originalCost": 1200,
    "offerCost": 900
  },
  {
    "title": "Peshawar Namak Mandi",
    "lat": 34.0080,
    "lng": 71.5785,
    "url": "https://wa.me/923004622840",
    "banner": "https://wallpapers.com/images/hd/720p-food-background-zk7b2cc6etnqud54.jpg",
    "time": "4PM–2AM",
    "food": "Mutton Karahi",
    "desc": "Authentic Peshawari style spicy mutton karahi",
    "persons": 4,
    "originalCost": 5000,
    "offerCost": 3800
  },
  {
    "title": "Bahadurabad Food Street Karachi",
    "lat": 24.8720,
    "lng": 67.0730,
    "url": "https://wa.me/923004622840",
    "banner": "https://wallpapers.com/images/hd/720p-food-background-zk7b2cc6etnqud54.jpg",
    "time": "5PM–1AM",
    "food": "Bun Kebab",
    "desc": "Spicy street bun kebab with chutney and egg",
    "persons": 2,
    "originalCost": 600,
    "offerCost": 400
  },
  {
    "title": "Fort Road Food Street Lahore",
    "lat": 31.5880,
    "lng": 74.3090,
    "url": "https://wa.me/923004622840",
    "banner": "https://wallpapers.com/images/hd/720p-food-background-zk7b2cc6etnqud54.jpg",
    "time": "6PM–1AM",
    "food": "Lahori Karahi",
    "desc": "Rich butter-based Lahori chicken karahi with naan",
    "persons": 3,
    "originalCost": 3500,
    "offerCost": 2500
  },
  {
    "title": "Hyderabad Food Street Sindh",
    "lat": 25.3960,
    "lng": 68.3578,
    "url": "https://wa.me/923004622840",
    "banner": "https://wallpapers.com/images/hd/720p-food-background-zk7b2cc6etnqud54.jpg",
    "time": "5PM–12AM",
    "food": "Dahi Bhallay",
    "desc": "Sweet and tangy yogurt-based street snack",
    "persons": 2,
    "originalCost": 700,
    "offerCost": 500
  }
]
