[
  {
    "title": "Lahori Bites",
    "lat": 31.51673,
    "lng": 74.36465,
    "url": "https://wa.me/923004622840",
    "banner": "https://wallpapers.com/images/hd/720p-5wfq1i9etj969c3k.jpg",
    "time": "11AM–1AM",
    "food": "Nihari",
    "desc": "Slow-cooked beef shank stew",
    "persons": 2,
    "originalCost": 2000,
    "offerCost": 1500
  },
  {
    "title": "Gaddafi Eatery",
    "lat": 31.52050,
    "lng": 74.36010,
    "url": "https://wa.me/923004622840",
    "banner": "https://wallpapers.com/images/hd/720p-5wfq1i9etj969c3k.jpg",
    "time": "1PM–3AM",
    "food": "Shawarma",
    "desc": "Spicy chicken with garlic sauce",
    "persons": 1,
    "originalCost": 1100,
    "offerCost": 800
  },
  {
    "title": "Anarkali Flavors",
    "lat": 31.51820,
    "lng": 74.36200,
    "url": "#",
    "banner": "https://wallpapers.com/images/hd/720p-5wfq1i9etj969c3k.jpg",
    "time": "12PM–12AM",
    "food": "Biryani",
    "desc": "Aromatic rice with spiced chicken",
    "persons": 2,
    "originalCost": 1800,
    "offerCost": 1300
  },
  {
    "title": "Food Street Corner",
    "lat": 31.51750,
    "lng": 74.36620,
    "url": "https://wa.me/923004622840",
    "banner": "https://wallpapers.com/images/hd/720p-5wfq1i9etj969c3k.jpg",
    "time": "5PM–2AM",
    "food": "Karahi",
    "desc": "Traditional wok-cooked chicken karahi",
    "persons": 3,
    "originalCost": 2500,
    "offerCost": 1900
  },
  {
    "title": "Burns Road Food Street",
    "lat": 24.8607,
    "lng": 67.0011,
    "url": "https://wa.me/923004622840",
    "banner": "https://images.unsplash.com/photo-1604908177522-0408b3f7c3c2",
    "time": "4PM–3AM",
    "food": "Nihari",
    "desc": "Classic Karachi street-style slow-cooked beef nihari",
    "persons": 4,
    "originalCost": 3000,
    "offerCost": 2200
  },
  {
    "title": "Gawalmandi Food Street",
    "lat": 31.5622,
    "lng": 74.3095,
    "url": "https://wa.me/923004622840",
    "banner": "https://images.unsplash.com/photo-1631515243349-e0cb75fb8d4d",
    "time": "5PM–1AM",
    "food": "Chargha",
    "desc": "Famous Lahori whole fried spicy chicken chargha",
    "persons": 3,
    "originalCost": 2800,
    "offerCost": 2000
  },
  {
    "title": "Melody Food Park Islamabad",
    "lat": 33.7076,
    "lng": 73.0513,
    "url": "https://wa.me/923004622840",
    "banner": "https://images.unsplash.com/photo-1601050690597-df0568f70950",
    "time": "3PM–12AM",
    "food": "Chicken Tikka",
    "desc": "Smoky grilled tikka with naan and chutney",
    "persons": 2,
    "originalCost": 2000,
    "offerCost": 1500
  },
  {
    "title": "Anarkali Food Street Lahore",
    "lat": 31.5651,
    "lng": 74.3142,
    "url": "https://wa.me/923004622840",
    "banner": "https://images.unsplash.com/photo-1604908554163-4a0c1b2d2d9f",
    "time": "6PM–2AM",
    "food": "Gol Gappay",
    "desc": "Tangy and spicy street-style pani puri experience",
    "persons": 2,
    "originalCost": 800,
    "offerCost": 500
  },
  {
    "title": "Port Grand Karachi",
    "lat": 24.8499,
    "lng": 67.0014,
    "url": "https://wa.me/923004622840",
    "banner": "https://images.unsplash.com/photo-1504674900247-0877df9cc836",
    "time": "4PM–11PM",
    "food": "BBQ Platter",
    "desc": "Mixed grilled BBQ platter with rice and naan",
    "persons": 4,
    "originalCost": 4500,
    "offerCost": 3200
  },
  {
    "title": "Hussain Agahi Food Street Multan",
    "lat": 30.1978,
    "lng": 71.4707,
    "url": "https://wa.me/923004622840",
    "banner": "https://images.unsplash.com/photo-1604908553920-3c9b8a7f5b3a",
    "time": "5PM–12AM",
    "food": "Sohan Halwa",
    "desc": "Traditional Multani sweet dessert specialty",
    "persons": 3,
    "originalCost": 1200,
    "offerCost": 900
  },
  {
    "title": "Peshawar Namak Mandi",
    "lat": 34.0080,
    "lng": 71.5785,
    "url": "https://wa.me/923004622840",
    "banner": "https://images.unsplash.com/photo-1617196034796-73dfa7b1fd56",
    "time": "4PM–2AM",
    "food": "Mutton Karahi",
    "desc": "Authentic Peshawari style spicy mutton karahi",
    "persons": 4,
    "originalCost": 5000,
    "offerCost": 3800
  },
  {
    "title": "Bahadurabad Food Street Karachi",
    "lat": 24.8720,
    "lng": 67.0730,
    "url": "https://wa.me/923004622840",
    "banner": "https://images.unsplash.com/photo-1625944525533-4737c4b3f6a5",
    "time": "5PM–1AM",
    "food": "Bun Kebab",
    "desc": "Spicy street bun kebab with chutney and egg",
    "persons": 2,
    "originalCost": 600,
    "offerCost": 400
  },
  {
    "title": "Fort Road Food Street Lahore",
    "lat": 31.5880,
    "lng": 74.3090,
    "url": "https://wa.me/923004622840",
    "banner": "https://images.unsplash.com/photo-1604908177229-1f4a1b9c2f44",
    "time": "6PM–1AM",
    "food": "Lahori Karahi",
    "desc": "Rich butter-based Lahori chicken karahi with naan",
    "persons": 3,
    "originalCost": 3500,
    "offerCost": 2500
  },
  {
    "title": "Mall Road Grill",
    "lat": 31.51900,
    "lng": 74.35900,
    "url": "#",
    "banner": "https://i.postimg.cc/v8h717y3/image.png",
    "time": "2PM–1AM",
    "food": "BBQ Platter",
    "desc": "Mixed grilled meats with chutney",
    "persons": 2,
    "originalCost": 2200,
    "offerCost": 1700
  },
  {
    "title": "Punjab Spice Hub",
    "lat": 31.52120,
    "lng": 74.36150,
    "url": "#",
    "banner": "https://i.postimg.cc/v8h717y3/image.png",
    "time": "11AM–11PM",
    "food": "Daal Makhni",
    "desc": "Creamy lentils cooked overnight",
    "persons": 2,
    "originalCost": 1400,
    "offerCost": 1000
  },
  {
    "title": "Desi Delight",
    "lat": 31.52210,
    "lng": 74.36300,
    "url": "https://wa.me/923004622840",
    "banner": "https://i.postimg.cc/v8h717y3/image.png",
    "time": "12PM–2AM",
    "food": "Haleem",
    "desc": "Rich stew of meat and lentils",
    "persons": 2,
    "originalCost": 1600,
    "offerCost": 1200
  },
  {
    "title": "Lahore Tandoori House",
    "lat": 31.51600,
    "lng": 74.36580,
    "url": "#",
    "banner": "https://i.postimg.cc/v8h717y3/image.png",
    "time": "1PM–1AM",
    "food": "Tandoori Chicken",
    "desc": "Charcoal roasted spicy chicken",
    "persons": 2,
    "originalCost": 2000,
    "offerCost": 1500
  },
  {
    "title": "Street Eats Lahore",
    "lat": 31.51780,
    "lng": 74.35870,
    "url": "#",
    "banner": "https://i.postimg.cc/v8h717y3/image.png",
    "time": "4PM–3AM",
    "food": "Chaat",
    "desc": "Tangy and spicy street snacks",
    "persons": 1,
    "originalCost": 900,
    "offerCost": 600
  },
  {
    "title": "Spice Bazaar",
    "lat": 31.52080,
    "lng": 74.36720,
    "url": "https://wa.me/923004622840",
    "banner": "https://i.postimg.cc/v8h717y3/image.png",
    "time": "12PM–12AM",
    "food": "Seekh Kebabs",
    "desc": "Juicy minced meat skewers",
    "persons": 2,
    "originalCost": 1700,
    "offerCost": 1300
  },
  {
    "title": "Karachi Kitchen",
    "lat": 31.51950,
    "lng": 74.36410,
    "url": "#",
    "banner": "https://i.postimg.cc/v8h717y3/image.png",
    "time": "11AM–11PM",
    "food": "Chicken Handi",
    "desc": "Creamy tomato-based chicken curry",
    "persons": 3,
    "originalCost": 2300,
    "offerCost": 1800
  },
  {
    "title": "Royal Mughal Dine",
    "lat": 31.52180,
    "lng": 74.36280,
    "url": "#",
    "banner": "https://i.postimg.cc/v8h717y3/image.png",
    "time": "2PM–2AM",
    "food": "Mutton Korma",
    "desc": "Rich and aromatic mutton curry",
    "persons": 3,
    "originalCost": 2600,
    "offerCost": 2000
  }
]
