[
  {
    "title": "Lahori Bites",
    "lat": 31.51673,
    "lng": 74.36465,
    "url": "https://wa.me/923004622840",
    "banner": "https://wallpapers.com/images/hd/720p-5wfq1i9etj969c3k.jpg",
    "time": "11AM–1AM",
    "food": "Nihari",
    "desc": "Slow-cooked beef shank stew",
    "persons": 2,
    "originalCost": 2000,
    "offerCost": 1500
  },
  {
    "title": "Gaddafi Eatery",
    "lat": 31.52050,
    "lng": 74.36010,
    "url": "https://wa.me/923004622840",
    "banner": "https://wallpapers.com/images/hd/720p-5wfq1i9etj969c3k.jpg",
    "time": "1PM–3AM",
    "food": "Shawarma",
    "desc": "Spicy chicken with garlic sauce",
    "persons": 1,
    "originalCost": 1100,
    "offerCost": 800
  },
  {
    "title": "Anarkali Flavors",
    "lat": 31.51820,
    "lng": 74.36200,
    "url": "#",
    "banner": "https://wallpapers.com/images/hd/720p-5wfq1i9etj969c3k.jpg",
    "time": "12PM–12AM",
    "food": "Biryani",
    "desc": "Aromatic rice with spiced chicken",
    "persons": 2,
    "originalCost": 1800,
    "offerCost": 1300
  },
  {
    "title": "Food Street Corner",
    "lat": 31.51750,
    "lng": 74.36620,
    "url": "https://wa.me/923004622840",
    "banner": "https://wallpapers.com/images/hd/720p-5wfq1i9etj969c3k.jpg",
    "time": "5PM–2AM",
    "food": "Karahi",
    "desc": "Traditional wok-cooked chicken karahi",
    "persons": 3,
    "originalCost": 2500,
    "offerCost": 1900
  },
  {
    "title": "Mall Road Grill",
    "lat": 31.51900,
    "lng": 74.35900,
    "url": "#",
    "banner": "https://i.postimg.cc/v8h717y3/image.png",
    "time": "2PM–1AM",
    "food": "BBQ Platter",
    "desc": "Mixed grilled meats with chutney",
    "persons": 2,
    "originalCost": 2200,
    "offerCost": 1700
  },
  {
    "title": "Punjab Spice Hub",
    "lat": 31.52120,
    "lng": 74.36150,
    "url": "#",
    "banner": "https://i.postimg.cc/v8h717y3/image.png",
    "time": "11AM–11PM",
    "food": "Daal Makhni",
    "desc": "Creamy lentils cooked overnight",
    "persons": 2,
    "originalCost": 1400,
    "offerCost": 1000
  },
  {
    "title": "Desi Delight",
    "lat": 31.52210,
    "lng": 74.36300,
    "url": "https://wa.me/923004622840",
    "banner": "https://i.postimg.cc/v8h717y3/image.png",
    "time": "12PM–2AM",
    "food": "Haleem",
    "desc": "Rich stew of meat and lentils",
    "persons": 2,
    "originalCost": 1600,
    "offerCost": 1200
  },
  {
    "title": "Lahore Tandoori House",
    "lat": 31.51600,
    "lng": 74.36580,
    "url": "#",
    "banner": "https://i.postimg.cc/v8h717y3/image.png",
    "time": "1PM–1AM",
    "food": "Tandoori Chicken",
    "desc": "Charcoal roasted spicy chicken",
    "persons": 2,
    "originalCost": 2000,
    "offerCost": 1500
  },
  {
    "title": "Street Eats Lahore",
    "lat": 31.51780,
    "lng": 74.35870,
    "url": "#",
    "banner": "https://i.postimg.cc/v8h717y3/image.png",
    "time": "4PM–3AM",
    "food": "Chaat",
    "desc": "Tangy and spicy street snacks",
    "persons": 1,
    "originalCost": 900,
    "offerCost": 600
  },
  {
    "title": "Spice Bazaar",
    "lat": 31.52080,
    "lng": 74.36720,
    "url": "https://wa.me/923004622840",
    "banner": "https://i.postimg.cc/v8h717y3/image.png",
    "time": "12PM–12AM",
    "food": "Seekh Kebabs",
    "desc": "Juicy minced meat skewers",
    "persons": 2,
    "originalCost": 1700,
    "offerCost": 1300
  },
  {
    "title": "Karachi Kitchen",
    "lat": 31.51950,
    "lng": 74.36410,
    "url": "#",
    "banner": "https://i.postimg.cc/v8h717y3/image.png",
    "time": "11AM–11PM",
    "food": "Chicken Handi",
    "desc": "Creamy tomato-based chicken curry",
    "persons": 3,
    "originalCost": 2300,
    "offerCost": 1800
  },
  {
    "title": "Royal Mughal Dine",
    "lat": 31.52180,
    "lng": 74.36280,
    "url": "#",
    "banner": "https://i.postimg.cc/v8h717y3/image.png",
    "time": "2PM–2AM",
    "food": "Mutton Korma",
    "desc": "Rich and aromatic mutton curry",
    "persons": 3,
    "originalCost": 2600,
    "offerCost": 2000
  }
]
